City_ID,City,Lat,Lng,Max Temp (C),Humidity,Cloudiness,Wind Speed,Country,Date
0,port mathurin,-19.6833,63.4167,25.200000000000045,71,69,4.54,MU,1684991545
1,tazacorte,28.629,-17.9293,18.54000000000002,77,75,3.6,ES,1684991545
2,adamstown,-25.066,-130.1015,23.610000000000014,71,66,2.25,PN,1684991545
3,olonkinbyen,70.9221,-8.7187,-2.419999999999959,90,100,17.15,SJ,1684991546
4,albany,42.6001,-73.9662,7.420000000000016,86,55,2.32,US,1684991250
5,yellowknife,62.456,-114.3525,13.29000000000002,67,20,2.06,CA,1684991546
6,sretensk,52.2453,117.7093,20.78000000000003,21,99,2.16,RU,1684991546
7,bandarbeyla,9.4942,50.8122,28.879999999999995,69,100,7.04,SO,1684991546
8,kolonia town,6.964,158.206,32.06,74,75,5.14,FM,1684991547
9,kunashak,55.7032,61.5498,26.29000000000002,35,25,3.47,RU,1684991547
10,port-aux-francais,-49.35,70.2167,5.670000000000016,99,100,8.29,TF,1684991547
11,umluj,25.0213,37.2685,29.25,56,29,2.77,SA,1684991547
12,hermanus,-34.4187,19.2345,12.110000000000014,85,99,7.45,ZA,1684991548
13,novyy urengoy,66.0833,76.6333,5.410000000000025,77,19,2.44,RU,1684991548
14,zhanaozen,43.3,52.8,28.600000000000023,19,83,10.14,KZ,1684991548
15,icano,-28.9193,-65.3282,20.77000000000004,88,92,1.02,AR,1684991548
16,pacific grove,36.6177,-121.9166,12.970000000000027,86,100,5.14,US,1684991549
17,kingston,17.997,-76.7936,26.25,82,1,0.89,JM,1684991275
18,west island,-12.1568,96.8225,25.99000000000001,94,100,12.35,CC,1684991549
19,ushuaia,-54.8,-68.3,3.8100000000000023,70,20,3.09,AR,1684991550
20,tura,25.5198,90.2201,30.220000000000027,50,2,2.22,IN,1684991550
21,edinburgh of the seven seas,-37.0676,-12.3116,14.82000000000005,81,98,13.91,SH,1684991551
22,iskateley,67.6803,53.1512,18.83000000000004,61,98,4.79,RU,1684991551
23,invercargill,-46.4,168.35,13.53000000000003,73,94,3.59,NZ,1684991551
24,whitehorse,60.7161,-135.0538,15.010000000000048,47,20,4.63,CA,1684991528
25,port lincoln,-34.7333,135.8667,13.650000000000034,61,81,9.51,AU,1684991552
26,nguigmi,14.2495,13.1092,29.910000000000025,39,14,3.72,NE,1684991552
27,touros,-5.1989,-35.4608,24.08000000000004,89,70,3.81,BR,1684991553
28,bethel,41.3712,-73.414,12.580000000000041,79,75,3.6,US,1684991553
29,chulym,55.0997,80.9572,15.800000000000011,34,18,3.32,RU,1684991553
30,tadine,-21.55,167.8833,22.470000000000027,54,87,5.63,NC,1684991554
31,waitangi,-43.9535,-176.5597,11.57000000000005,78,40,3.13,NZ,1684991554
32,susuman,62.7833,148.1667,7.82000000000005,40,100,2.15,RU,1684991554
33,jinxiang,27.4327,120.6062,23.340000000000032,73,11,3.52,CN,1684991555
34,san antonio de pale,-1.4014,5.6325,26.32000000000005,89,99,6.33,GQ,1684991555
35,enewetak,11.3474,162.3373,27.75,79,96,7.01,MH,1684991556
36,vilyuchinsk,52.9306,158.4028,13.150000000000034,75,40,1.96,RU,1684991556
37,pampa,35.5362,-100.9599,16.53000000000003,88,84,4.12,US,1684991557
38,guane,22.2025,-84.0875,22.83000000000004,89,1,2.16,CU,1684991557
39,darazo,10.9938,10.4118,27.24000000000001,62,73,3.09,NG,1684991298
40,jumla,29.2747,82.1838,12.760000000000048,83,100,1.68,NP,1684991557
41,timimoun,29.2639,0.231,22.82000000000005,23,14,5.84,DZ,1684991558
42,thompson,55.7435,-97.8558,15.090000000000032,38,75,3.09,CA,1684991558
43,harstad,68.799,16.5293,5.640000000000043,85,79,13.86,NO,1684991558
44,bredasdorp,-34.5322,20.0403,13.080000000000041,85,100,6.06,ZA,1684991559
45,puerto natales,-51.7236,-72.4875,-1.8999999999999773,88,65,1.71,CL,1684991537
46,constantia,44.1833,28.65,19.28000000000003,73,69,1.68,RO,1684991559
47,porbandar,21.6422,69.6093,31.99000000000001,66,40,7.2,IN,1684991560
48,udachny,66.4167,112.4,4.140000000000043,64,100,6.58,RU,1684991560
49,reyes,-14.3167,-67.3833,21.629999999999995,99,65,0.63,BO,1684991560
50,tazovsky,67.4667,78.7,5.090000000000032,73,14,3.39,RU,1684991561
51,lebu,-37.6167,-73.65,10.560000000000002,88,81,3.44,CL,1684991561
52,port elizabeth,-33.918,25.5701,16.29000000000002,86,0,3.6,ZA,1684991561
53,bilibino,68.0546,166.4372,11.830000000000041,36,16,1.31,RU,1684991562
54,volgodonsk,47.5136,42.1514,20.49000000000001,66,52,3.57,RU,1684991562
55,kirakira,-10.4544,161.9205,27.410000000000025,85,100,1.82,SB,1684991562
56,badger,64.8,-147.5333,18.140000000000043,48,75,4.63,US,1684991537
57,babu,24.4167,111.5167,28.879999999999995,75,100,1.52,CN,1684991563
58,olinda,-8.0089,-34.8553,23.850000000000023,94,75,1.54,BR,1684991563
59,petropavlovsk-kamchatsky,53.0452,158.6483,12.330000000000041,44,75,6.0,RU,1684991564
60,qaqortoq,60.7167,-46.0333,0.6299999999999955,99,100,3.87,GL,1684991564
61,papatowai,-46.5619,169.4708,13.710000000000036,69,94,3.6,NZ,1684991564
62,grytviken,-54.2811,-36.5092,0.5600000000000023,62,88,2.59,GS,1684991565
63,codrington,-38.2667,141.9667,13.07000000000005,64,89,8.61,AU,1684991565
64,leua,48.2156,18.6071,16.390000000000043,84,5,1.22,SK,1684991565
65,kodiak,57.79,-152.4072,6.730000000000018,81,100,3.09,US,1684991425
66,nuuk,64.1835,-51.7216,0.5500000000000114,91,59,2.17,GL,1684991566
67,galeana,24.8333,-100.0667,16.0,95,90,0.51,MX,1684991566
68,lakatoro,-16.0999,167.4164,25.420000000000016,70,93,6.36,VU,1684991567
69,avarua,-21.2078,-159.775,26.03000000000003,73,69,5.14,CK,1684991568
70,hammerfest,70.6634,23.6821,9.25,49,0,5.14,NO,1684991568
71,sao vicente,-23.9631,-46.3919,23.100000000000023,26,33,1.15,BR,1684991568
72,longyearbyen,78.2186,15.6401,1.910000000000025,75,75,5.14,SJ,1684991569
73,bel ombre,-4.6167,55.4167,28.910000000000025,74,40,4.12,SC,1684991569
74,isafjordur,66.0755,-23.124,3.7800000000000296,79,48,8.94,IS,1684991569
75,iqaluit,63.7506,-68.5145,-1.1499999999999773,80,100,3.09,CA,1684991570
76,east london,-33.0153,27.9116,21.52000000000004,37,100,0.72,ZA,1684991447
77,ilulissat,69.2167,-51.1,-1.9899999999999523,54,95,9.77,GL,1684991570
78,pitimbu,-7.4706,-34.8086,24.33000000000004,83,13,3.04,BR,1684991570
79,al jawf,29.5,38.75,26.460000000000036,18,15,2.02,SA,1684991571
80,mendoza,-32.8908,-68.8272,14.490000000000009,70,63,1.13,AR,1684991396
81,zaltan,32.947,11.8665,19.390000000000043,81,61,5.56,LY,1684991571
82,chabahar,25.2919,60.643,31.810000000000002,63,92,4.06,IR,1684991571
83,n'dalatando,-9.2978,14.9116,18.560000000000002,93,96,1.01,AO,1684991572
84,priozersk,61.0393,30.1291,18.390000000000043,93,7,3.78,RU,1684991572
85,qamdo,31.1667,97.2333,13.870000000000005,18,3,3.53,CN,1684991572
86,uturoa,-16.7333,-151.4333,27.400000000000034,71,31,3.0,PF,1684991572
87,ust-nera,64.5667,143.2,4.670000000000016,87,83,1.37,RU,1684991573
88,sitka,57.0531,-135.33,10.939999999999998,87,100,2.57,US,1684991573
89,georgetown,5.4112,100.3354,32.960000000000036,66,40,4.12,MY,1684991506
90,puerto ayora,-0.7393,-90.3518,24.189999999999998,96,4,0.45,EC,1684991574
91,dunedin,-45.8742,170.5036,13.220000000000027,66,24,1.63,NZ,1684991563
92,guerrero negro,27.9769,-114.0611,15.740000000000009,80,6,6.28,MX,1684991408
93,valle de la pascua,9.2155,-66.0073,26.180000000000007,79,100,2.02,VE,1684991575
94,lone grove,34.1754,-97.2628,21.220000000000027,87,0,1.54,US,1684991575
95,nagqu,31.5,92.0,12.020000000000039,28,79,6.46,CN,1684991575
96,hawaiian paradise park,19.5933,-154.9731,21.129999999999995,98,100,2.57,US,1684991575
97,bandon,51.7469,-8.7425,13.770000000000039,96,1,3.22,IE,1684991576
98,puerto baquerizo moreno,-0.9,-89.6,24.900000000000034,80,1,3.12,EC,1684991576
99,ouani,-12.1322,44.4258,26.660000000000025,64,20,4.4,KM,1684991576
100,kalmunai,7.4167,81.8167,30.960000000000036,63,7,1.4,LK,1684991576
101,tralee,52.2704,-9.7026,9.220000000000027,96,23,1.71,IE,1684991577
102,swakopmund,-22.6833,14.5333,13.32000000000005,91,6,0.45,NA,1684991577
103,college,64.8569,-147.8028,18.180000000000007,43,75,4.63,US,1684991577
104,afaahiti,-17.75,-149.2833,25.930000000000007,77,49,2.42,PF,1684991577
105,general conesa,-40.1,-64.4333,10.930000000000007,45,2,4.82,AR,1684991577
106,ola,59.5833,151.2833,8.970000000000027,86,100,2.27,RU,1684991578
107,nadym,65.5333,72.5167,12.670000000000016,43,0,4.84,RU,1684991578
108,surman,32.7567,12.5716,19.460000000000036,85,13,5.72,LY,1684991578
109,stanley,54.868,-1.6985,9.870000000000005,93,20,2.06,GB,1684991391
110,nangwa,-4.4667,35.45,14.680000000000007,81,91,3.95,TZ,1684991579
111,hirara,24.8,125.2833,25.100000000000023,73,46,3.23,JP,1684991579
112,kayangel,8.0823,134.7173,29.360000000000014,74,11,5.42,PW,1684991579
113,cambridge,43.3601,-80.3127,7.680000000000007,66,0,3.6,CA,1684991003
114,aomori,40.8244,140.74,21.960000000000036,52,77,2.49,JP,1684991567
115,alesund,62.4723,6.1549,9.310000000000002,83,75,8.23,NO,1684991411
116,palmares do sul,-30.2578,-50.5097,18.27000000000004,90,100,2.44,BR,1684991392
117,motygino,58.1831,94.7592,8.57000000000005,46,65,2.81,RU,1684991580
118,tiksi,71.6872,128.8694,-1.1299999999999955,74,19,2.09,RU,1684991580
119,punta arenas,-53.15,-70.9167,2.840000000000032,75,0,5.66,CL,1684991581
120,mukalla,14.5425,49.1242,29.78000000000003,68,33,3.12,YE,1684991581
121,labrador city,52.9463,-66.9114,-0.2899999999999636,67,3,2.54,CA,1684991410
122,saint-philippe,-21.3585,55.7679,23.77000000000004,90,100,3.79,RE,1684991582
123,morgan city,29.6994,-91.2068,22.0,83,0,5.66,US,1684991583
124,maturin,9.75,-63.1767,23.610000000000014,97,66,1.54,VE,1684991583
125,atafu village,-8.5421,-172.5159,28.090000000000032,70,78,1.01,TK,1684991583
126,saint-pierre,-21.3393,55.4781,23.82000000000005,73,75,4.63,RE,1684991584
127,margaret river,-33.95,115.0667,15.390000000000043,53,66,4.48,AU,1684991584
128,talagutong,6.2644,125.6678,28.840000000000032,76,98,1.03,PH,1684991584
129,giresun,40.5,38.5,9.439999999999998,56,57,2.82,TR,1684991289
130,birao,10.2849,22.7882,29.060000000000002,33,33,1.73,CF,1684991585
131,nabire,-3.3667,135.4833,29.590000000000032,73,48,1.7,ID,1684991586
132,vorkuta,67.5,64.0,11.629999999999995,77,100,7.09,RU,1684991586
133,ribeira grande,38.5167,-28.7,15.990000000000009,80,15,3.58,PT,1684991586
134,spokoynaya,44.2468,41.4015,18.79000000000002,71,24,1.23,RU,1684991586
135,nuku'alofa,-21.1333,-175.2,23.189999999999998,83,75,2.06,TO,1684991587
136,santa ana,33.7456,-117.8678,17.220000000000027,77,100,3.09,US,1684991587
137,aquin,18.2833,-73.4,25.02000000000004,88,6,1.16,HT,1684991587
138,wailua homesteads,22.0669,-159.378,25.24000000000001,78,75,7.2,US,1684991587
139,kruisfontein,-34.0033,24.7314,14.360000000000014,42,68,1.29,ZA,1684991588
140,koungheul,13.9833,-14.8,30.28000000000003,23,50,3.56,SN,1684991588
141,keflavik,64.0049,-22.5624,6.240000000000009,81,100,11.32,IS,1684991588
142,balqash,46.8481,74.995,22.33000000000004,23,0,6.0,KZ,1684991589
143,coquimbo,-29.9533,-71.3436,11.850000000000023,93,0,1.54,CL,1684991590
144,talnakh,69.4865,88.3972,0.6700000000000159,92,100,2.36,RU,1684991590
145,jamestown,42.097,-79.2353,8.770000000000039,70,0,3.09,US,1684991591
146,aleg,17.0481,-13.9209,28.58000000000004,40,89,5.97,MR,1684991592
147,colomadu,-7.5333,110.75,30.730000000000018,53,0,2.36,ID,1684991592
148,santo antonio,-6.3106,-35.4789,21.640000000000043,97,3,3.06,BR,1684991592
149,portland,45.5234,-122.6762,18.99000000000001,64,0,5.14,US,1684991327
150,wad medani,14.4012,33.5199,34.94,18,2,1.26,SD,1684991593
151,labuan,5.2767,115.2417,29.02000000000004,68,94,0.77,MY,1684991593
152,terme,41.2092,36.9739,17.960000000000036,90,88,1.2,TR,1684991594
153,novohrad-volynskyi,50.5941,27.6165,17.25,72,62,2.11,UA,1684991594
154,beidao,34.5686,105.8933,18.060000000000002,51,100,1.08,CN,1684991595
155,ancud,-41.8697,-73.8203,10.620000000000005,76,96,11.51,CL,1684991595
156,xiantao,30.3833,113.4,26.140000000000043,65,96,2.22,CN,1684991595
157,mahina,-17.5065,-149.489,26.870000000000005,74,20,2.57,PF,1684991596
158,revda,56.801,59.9303,24.80000000000001,30,41,1.7,RU,1684991596
159,port moresby,-9.4431,147.1797,25.680000000000007,94,100,5.14,PG,1684991596
160,nasice,45.4886,18.0878,17.53000000000003,82,8,2.78,HR,1684991597
161,anadyr,64.75,177.4833,3.2800000000000296,74,0,3.0,RU,1684991597
162,aasiaat,68.7098,-52.8699,-5.739999999999952,86,100,3.23,GL,1684991597
163,huanggang,23.677,116.9996,27.07000000000005,78,97,3.26,CN,1684991598
164,isangel,-19.55,169.2667,23.180000000000007,62,69,6.21,VU,1684991598
165,surbo,40.3994,18.1331,17.230000000000018,100,0,1.03,IT,1684991598
166,benghazi,32.1167,20.0667,22.120000000000005,56,85,7.87,LY,1684991599
167,capitan bado,-23.2667,-55.5333,16.439999999999998,75,0,5.56,PY,1684991599
168,gadani,25.1185,66.7299,33.120000000000005,80,18,10.27,PK,1684991599
169,stiens,53.2623,5.7577,11.100000000000023,97,17,2.06,NL,1684991600
170,queenstown,-31.8976,26.8753,10.75,32,100,1.8,ZA,1684991600
171,eenhana,-17.4667,16.3333,12.490000000000009,41,1,1.53,NA,1684991600
172,kattivakkam,13.2167,80.3167,37.05000000000001,63,15,3.52,IN,1684991600
173,shatsk,54.0258,41.7119,17.650000000000034,85,97,4.16,RU,1684991601
174,san julian,21.0167,-102.1667,21.360000000000014,19,9,2.55,MX,1684991601
175,chui,-33.6971,-53.4616,19.629999999999995,87,100,3.42,UY,1684991601
176,port augusta,-32.5,137.7667,14.350000000000023,76,100,8.92,AU,1684991602
177,itoman,26.1247,127.6694,27.430000000000007,75,75,3.6,JP,1684991547
178,hithadhoo,-0.6,73.0833,28.910000000000025,73,96,5.11,MV,1684991602
179,haiku-pauwela,20.9219,-156.3051,24.010000000000048,71,75,6.69,US,1684991603
180,tegina,10.0706,6.1906,25.150000000000034,81,46,2.08,NG,1684991603
181,cururupu,-1.8283,-44.8683,24.350000000000023,94,85,1.4,BR,1684991603
182,tarawa,1.419,172.984,30.05000000000001,74,20,2.57,KI,1684991603
183,achacachi,-16.05,-68.6833,4.82000000000005,33,34,1.64,BO,1684991604
184,macau,22.2006,113.5461,32.14000000000004,89,40,6.69,MO,1684991604
185,majuro,7.0897,171.3803,30.980000000000018,79,100,2.06,MH,1684991604
186,jutai,-5.1833,-68.9,22.100000000000023,99,100,0.39,BR,1684991481
187,pionerskiy,54.9508,20.2275,13.910000000000025,88,46,4.04,RU,1684991605
188,fuglafjordur,62.244,-6.814,7.260000000000048,81,18,11.62,FO,1684991605
189,sao jose da coroa grande,-8.8978,-35.1478,24.05000000000001,88,12,0.92,BR,1684991606
190,palembang,-2.9167,104.7458,32.05000000000001,62,40,3.6,ID,1684991606
191,ixtapa,20.7,-105.2,26.79000000000002,83,0,0.0,MX,1684991606
192,petauke,-14.2426,31.3253,16.150000000000034,71,0,1.11,ZM,1684991606
193,kutno,52.2306,19.3641,12.53000000000003,90,38,3.92,PL,1684991607
194,blackmans bay,-43.0167,147.3167,14.07000000000005,67,39,5.92,AU,1684991607
195,altamira,-3.2033,-52.2064,22.30000000000001,98,36,0.91,BR,1684991607
196,notodden,59.5594,9.2585,11.400000000000034,75,0,0.0,NO,1684991608
197,smithers,54.7804,-127.1743,16.180000000000007,48,0,4.12,CA,1684991608
198,roma,43.2128,-75.4557,6.160000000000025,89,0,0.0,US,1684991608
199,taltal,-25.4,-70.4833,16.700000000000045,80,1,0.88,CL,1684991609
200,opuwo,-18.0607,13.84,14.25,54,6,0.52,NA,1684991609
201,plastun,44.7561,136.2939,22.25,42,55,5.05,RU,1684991609
202,kazanskaya,45.4106,40.4361,19.670000000000016,85,66,0.89,RU,1684991609
203,vorgashor,67.5833,63.95,11.580000000000041,76,100,7.24,RU,1684991610
204,luau,-10.7073,22.2247,16.960000000000036,66,2,1.48,AO,1684991610
205,tsiombe,-25.3,45.4833,19.379999999999995,60,2,2.72,MG,1684991611
206,beledweyne,4.7358,45.2036,26.660000000000025,67,96,5.23,SO,1684991611
207,taksimo,56.3444,114.8794,4.100000000000023,96,100,2.37,RU,1684991611
208,hobyo,5.3505,48.5268,27.760000000000048,68,100,3.35,SO,1684991612
209,mocimboa,-11.3167,40.35,24.189999999999998,78,45,3.26,MZ,1684991612
210,fortaleza,-3.7227,-38.5247,26.07000000000005,83,0,2.57,BR,1684991613
211,dickinson,29.4608,-95.0513,26.100000000000023,83,40,0.0,US,1684991613
212,bichura,50.5881,107.6022,8.740000000000009,44,97,4.99,RU,1684991613
213,kongolo,-5.3833,27.0,21.840000000000032,84,36,1.12,CD,1684991614
214,lihue,21.9789,-159.3672,25.58000000000004,78,75,7.2,US,1684991614
215,talcher,20.95,85.2167,42.23000000000002,18,15,7.13,IN,1684991614
216,sisimiut,66.9395,-53.6735,-1.5299999999999727,71,89,2.65,GL,1684991615
217,gdov,58.7406,27.8122,13.5,75,14,2.48,RU,1684991615
218,talcahuano,-36.7167,-73.1167,10.82000000000005,100,100,2.06,CL,1684991577
219,hadibu,12.65,54.0333,29.80000000000001,67,57,2.96,YE,1684991616
220,tyre,33.2733,35.1939,23.75,72,1,1.9,LB,1684991616
221,gaiman,-43.2897,-65.4929,10.370000000000005,45,18,9.5,AR,1684991617
222,cabo san lucas,22.8909,-109.9124,26.610000000000014,61,100,7.06,MX,1684991617
223,bikenibeu village,1.3673,173.1241,29.980000000000018,74,20,2.57,KI,1684991617
224,novyy turtkul',41.55,61.0167,27.950000000000045,14,5,4.75,UZ,1684991617
225,cranbrook,49.4999,-115.7688,11.910000000000025,71,75,4.12,CA,1684991618
226,salinopolis,-0.6136,-47.3561,25.150000000000034,91,95,4.15,BR,1684991618
227,recani,31.2846,-4.2688,18.58000000000004,42,6,4.11,MA,1684991618
228,raduzhnyy,62.0961,77.475,11.610000000000014,36,4,3.46,RU,1684991619
229,rodolfo sanchez taboada,31.7167,-116.5667,15.610000000000014,73,2,0.89,MX,1684991619
230,flin flon,54.7682,-101.865,14.57000000000005,69,83,3.61,CA,1684991556
231,huarmey,-10.0681,-78.1522,21.79000000000002,84,65,4.09,PE,1684991620
232,barrouallie,13.2333,-61.2667,25.629999999999995,83,39,3.54,VC,1684991620
233,korla,41.7597,86.1469,24.230000000000018,13,61,1.31,CN,1684991620
234,houston,29.7633,-95.3633,25.629999999999995,77,100,3.09,US,1684991007
235,nar'yan-mar,67.6713,53.087,18.890000000000043,61,98,4.79,RU,1684991621
236,el calafate,-50.3408,-72.2768,-0.5600000000000023,76,50,1.32,AR,1684991621
237,sofiyivka,48.0493,33.8746,19.100000000000023,76,97,2.61,UA,1684991421
238,elliot lake,46.3834,-82.6331,1.7200000000000273,61,0,2.35,CA,1684991622
239,geraldton,-28.7667,114.6,20.230000000000018,37,0,8.75,AU,1684991622
240,sullivan,36.5168,-82.5332,15.560000000000002,79,0,0.0,US,1684991622
241,nawalgarh,27.85,75.2667,32.53000000000003,44,41,4.55,IN,1684991623
242,vangaindrano,-23.35,47.6,19.120000000000005,86,82,2.36,MG,1684991623
243,howard springs,-12.497,131.047,29.950000000000045,25,16,1.55,AU,1684991624
244,kuraymah,18.55,31.85,34.48000000000002,22,0,4.01,SD,1684991624
245,san bernardo del viento,9.3533,-75.9524,27.08000000000004,84,100,3.72,CO,1684991625
246,agropoli,40.3469,14.9966,18.379999999999995,77,71,1.58,IT,1684991625
247,pathein,16.7833,94.7333,35.07000000000005,46,15,6.33,MM,1684991625
248,ar ruways,24.1103,52.7306,34.650000000000034,31,100,3.05,AE,1684991625
249,urumqi,43.801,87.6005,21.53000000000003,21,0,4.0,CN,1684991411
250,al mindak,20.1588,41.2834,21.950000000000045,37,0,1.3,SA,1684991626
251,la passe,45.5549,-0.8967,12.230000000000018,84,84,6.0,FR,1684991627
252,gamboma,-1.8764,15.8644,22.650000000000034,89,78,1.48,CG,1684991627
253,kokkola,63.8385,23.1307,9.090000000000032,81,0,2.57,FI,1684991627
254,kristiansund,63.1115,7.732,8.03000000000003,70,75,8.75,NO,1684991628
255,utrik,11.2278,169.8474,27.75,78,100,6.84,MH,1684991628
256,naze,28.3667,129.4833,22.120000000000005,66,50,4.52,JP,1684991628
257,buka,40.8108,69.1986,24.670000000000016,24,1,2.33,UZ,1684991628
258,newman,37.3138,-121.0208,18.340000000000032,62,1,4.02,US,1684991629
259,ocean city,39.2776,-74.5746,16.210000000000036,72,9,6.26,US,1684991629
260,tangalle,6.024,80.7911,32.09000000000003,61,19,5.74,LK,1684991629
261,pabrade,55.0,25.7833,16.25,59,70,1.4,LT,1684991630
262,cooper's town,26.8667,-77.5167,25.930000000000007,74,71,5.6,BS,1684991630
263,saipan,15.1355,145.701,25.360000000000014,100,100,8.05,MP,1684991569
264,champerico,14.3,-91.9167,28.450000000000045,76,82,1.49,GT,1684991631
265,hashtrud,37.4779,47.0508,18.850000000000023,47,80,0.65,IR,1684991631
266,quatre cocos,-20.2078,57.7625,27.27000000000004,73,21,2.25,MU,1684991632
267,kiunga,-6.1219,141.2906,23.83000000000004,98,100,0.7,PG,1684991632
268,sandnessjoen,66.0217,12.6316,5.2900000000000205,83,75,6.69,NO,1684991632
269,zamora,-4.0692,-78.9567,18.680000000000007,97,92,1.31,EC,1684991632
270,lorengau,-2.0226,147.2712,26.760000000000048,85,100,5.62,PG,1684991633
271,la'ie,21.6477,-157.9253,25.980000000000018,74,5,1.79,US,1684991633
272,porlamar,10.958,-63.8491,26.140000000000043,90,88,5.64,VE,1684991633
273,cockburn town,21.4612,-71.1419,27.30000000000001,79,50,5.34,TC,1684991634
274,jeddah,21.5169,39.2192,32.920000000000016,52,0,0.0,SA,1684991634
275,gisborne,-38.6533,178.0042,12.129999999999995,72,20,2.04,NZ,1684991634
276,lauro de freitas,-12.8944,-38.3272,27.010000000000048,78,40,4.63,BR,1684991514
277,bolnisi,41.4479,44.5384,19.77000000000004,53,83,0.53,GE,1684991635
278,zuya,45.0531,34.3154,16.110000000000014,86,97,0.58,UA,1684991635
279,ovruch,51.3246,28.8035,17.370000000000005,72,61,2.06,UA,1684991635
280,bismarck,46.8083,-100.7837,20.360000000000014,70,0,6.17,US,1684991533
281,kapuskasing,49.4169,-82.4331,0.05000000000001137,80,0,1.54,CA,1684991636
282,dicle,38.3751,40.0722,19.30000000000001,43,30,0.96,TR,1684991636
283,deqen,29.9618,90.7188,13.670000000000016,41,97,4.16,CN,1684991636
284,tari,12.4086,4.4914,29.960000000000036,54,99,4.0,NG,1684991636
285,freetown,8.484,-13.2299,25.420000000000016,91,100,2.39,SL,1684991636
286,chonchi,-42.6128,-73.8092,8.560000000000002,85,88,6.33,CL,1684991637
287,las heras,-46.5419,-68.9359,5.730000000000018,49,20,14.87,AR,1684991637
288,aykhal,66.0,111.5,1.2900000000000205,80,100,6.27,RU,1684991637
289,kone,-21.0595,164.8658,23.840000000000032,50,20,3.9,NC,1684991637
290,reynosa,26.0833,-98.2833,26.230000000000018,82,75,4.12,MX,1684991582
291,namie,37.4833,141.0,22.53000000000003,51,100,0.45,JP,1684991638
292,dokkum,53.3222,5.997,11.100000000000023,100,13,2.06,NL,1684991638
293,tucuma,-0.1833,-50.05,24.140000000000043,95,93,2.52,BR,1684991638
294,baiyin,36.5583,104.2081,18.060000000000002,18,100,2.62,CN,1684991639
295,port shepstone,-30.7414,30.455,18.170000000000016,50,53,4.45,ZA,1684991639
296,richards bay,-28.783,32.0377,17.610000000000014,87,7,5.27,ZA,1684991639
297,strezhevoy,60.7333,77.5889,13.470000000000027,34,19,3.62,RU,1684991639
298,morehead city,34.7229,-76.726,16.689999999999998,80,20,3.13,US,1684991639
299,big bend,-26.8167,31.9333,15.730000000000018,92,8,1.73,SZ,1684991640
300,aldinga beach,-35.2793,138.4604,15.800000000000011,80,100,9.86,AU,1684991497
301,allapalli,19.4167,80.0667,35.210000000000036,36,89,1.74,IN,1684991640
302,rongelap,11.1635,166.8941,27.80000000000001,78,94,6.8,MH,1684991640
303,kunhegyes,47.3667,20.6333,16.100000000000023,82,11,4.18,HU,1684991358
304,minas de marcona,-15.2119,-75.1103,14.510000000000048,88,56,4.6,PE,1684991641
305,flying fish cove,-10.4217,105.6791,26.82000000000005,83,100,6.17,CX,1684991641
306,kizhinga,51.8462,109.9097,11.189999999999998,26,96,6.3,RU,1684991641
307,vila franca do campo,37.7167,-25.4333,16.230000000000018,90,56,2.3,PT,1684991642
308,kill devil hills,36.0307,-75.676,14.990000000000009,92,100,5.14,US,1684991517
309,glace bay,46.1969,-59.957,4.6200000000000045,94,100,4.12,CA,1684991642
310,maumere,-8.6199,122.2111,29.120000000000005,67,41,2.66,ID,1684991643
311,ujae,8.9322,165.7642,27.900000000000034,77,100,6.58,MH,1684991643
312,lompoc,34.6391,-120.4579,14.080000000000041,88,100,3.09,US,1684991535
313,bulungu,-4.55,18.6,21.80000000000001,92,39,1.39,CD,1684991644
314,mugia,43.1041,-9.2179,13.840000000000032,84,60,7.77,ES,1684991645
315,mejit,10.2753,170.8646,27.57000000000005,78,100,6.93,MH,1684991645
316,rampur,28.8167,79.0333,32.76000000000005,38,65,3.26,IN,1684991645
317,kudahuvadhoo,2.6708,72.8944,28.730000000000018,73,98,3.54,MV,1684991646
318,pendleton,45.6721,-118.7886,16.78000000000003,51,0,3.6,US,1684991646
319,mutare,-18.9707,32.6709,14.120000000000005,93,6,0.77,ZW,1684991647
320,beau vallon,-20.4189,57.6953,27.340000000000032,74,23,2.46,MU,1684991647
321,bima,-8.4667,118.7167,30.75,60,7,3.1,ID,1684991647
322,holualoa,19.6228,-155.9522,24.910000000000025,79,40,2.57,US,1684991648
323,uglegorsk,49.0833,142.0333,15.730000000000018,60,55,4.22,RU,1684991648
324,ishigaki,24.3448,124.1572,25.620000000000005,77,39,3.06,JP,1684991648
325,sabang,5.8933,95.3214,28.950000000000045,76,65,7.51,ID,1684991648
326,bubaque,11.2833,-15.8333,27.410000000000025,69,91,5.47,GW,1684991649
327,al fulah,11.7329,28.3579,30.870000000000005,32,3,3.97,SD,1684991649
328,ad dilam,23.9915,47.1627,32.23000000000002,25,4,5.65,SA,1684991650
329,alice springs,-23.7,133.8833,25.75,12,0,3.09,AU,1684991650
330,dubinino,55.6192,89.0911,9.460000000000036,39,28,3.94,RU,1684991650
331,altai,46.3722,96.2583,9.970000000000027,34,71,3.53,MN,1684991651
332,qarazhal,48.0078,70.7903,22.02000000000004,26,16,6.0,KZ,1684991651
333,carnarvon,-24.8667,113.6333,25.05000000000001,43,100,7.37,AU,1684991477
334,arteche,12.2645,125.4048,31.30000000000001,64,99,4.02,PH,1684991652
335,abepura,-2.6333,140.5833,32.450000000000045,52,40,1.54,ID,1684991652
336,ghat,24.9647,10.1728,26.600000000000023,13,97,2.32,LY,1684991652
337,pizhou,34.3114,117.9503,26.400000000000034,41,53,2.78,CN,1684991653
338,pelabuhanratu,-6.9875,106.5514,30.590000000000032,61,69,2.58,ID,1684991653
339,weno,7.4515,151.8468,28.30000000000001,67,99,0.61,FM,1684991653
340,san patricio,28.017,-97.5169,26.920000000000016,79,34,2.76,US,1684991654
341,yuci,37.6803,112.7319,22.860000000000014,35,40,3.0,CN,1684991654
342,kendari,-3.945,122.4989,27.53000000000003,84,98,0.75,ID,1684991654
343,zouerate,22.7187,-12.4521,23.32000000000005,38,100,1.08,MR,1684991655
344,ugoofaaru,5.6667,73.0,29.08000000000004,72,68,3.08,MV,1684991655
345,dudinka,69.4058,86.1778,0.9000000000000341,93,100,2.86,RU,1684991656
346,lionel town,17.8101,-77.2406,27.939999999999998,86,0,0.72,JM,1684991656
347,walvis bay,-22.9575,14.5053,13.379999999999995,89,6,2.36,NA,1684991588
348,mlangali,-9.7833,34.5167,14.200000000000045,86,26,2.1,TZ,1684991657
349,ham,49.7472,3.073,9.29000000000002,93,46,3.87,FR,1684991657
350,novodvinsk,64.4165,40.8122,18.430000000000007,65,54,3.03,RU,1684991658
351,baganga,7.5739,126.56,30.110000000000014,73,77,1.91,PH,1684991658
352,san luis,-33.295,-66.3356,15.950000000000045,82,53,3.56,AR,1684991659
353,xining,36.6167,101.7667,13.840000000000032,43,100,5.68,CN,1684991487
354,kailua-kona,19.6406,-155.9956,26.980000000000018,79,40,2.57,US,1684991659
355,aripuana,-9.1667,-60.6333,24.33000000000004,85,100,0.71,BR,1684991660
356,mutoko,-17.397,32.2268,13.54000000000002,76,0,1.3,ZW,1684991660
357,tamanrasset,22.785,5.5228,22.950000000000045,16,0,2.57,DZ,1684991660
358,hauterive,46.0901,3.4459,10.420000000000016,96,6,1.09,FR,1684991661
359,thunder bay,48.4001,-89.3168,-1.009999999999991,86,0,1.54,CA,1684991661
360,awjilah,29.1081,21.2869,25.78000000000003,27,79,7.84,LY,1684991661
361,abalak,58.1286,68.5944,21.54000000000002,43,50,3.47,RU,1684991662
362,niamey,13.5137,2.1098,30.160000000000025,51,0,3.09,NE,1684991662
363,lillehammer,61.1146,10.4674,8.020000000000039,52,0,1.68,NO,1684991662
364,machico,32.7,-16.7667,17.620000000000005,82,20,1.54,PT,1684991662
365,inhambane,-23.865,35.3833,21.670000000000016,73,5,3.64,MZ,1684991663
366,riberalta,-10.9833,-66.1,22.58000000000004,99,100,0.66,BO,1684991664
367,kouroussa,10.65,-9.8833,24.200000000000045,85,70,1.54,GN,1684991664
368,coruripe,-10.1256,-36.1756,23.640000000000043,87,7,0.53,BR,1684991664
369,kavaratti,10.5669,72.642,29.660000000000025,66,7,2.1,IN,1684991664
370,capayan,-28.761,-66.0502,21.0,81,7,0.23,AR,1684991665
371,calera,33.1029,-86.7536,19.30000000000001,95,100,0.0,US,1684991665
372,nova sintra,14.8667,-24.7167,20.30000000000001,80,93,4.75,CV,1684991665
373,nova vicosa,-17.8919,-39.3719,23.79000000000002,76,14,5.51,BR,1684991666
374,port-vila,-17.7338,168.3219,24.78000000000003,69,75,3.09,VU,1684991666
375,pelabuhan klang,3.0,101.4,33.82000000000005,67,26,2.22,MY,1684991666
376,deqing,30.5448,119.9599,27.160000000000025,52,88,1.83,CN,1684991667
377,zhongshan,21.3226,110.5829,29.660000000000025,78,99,6.58,CN,1684991667
378,yashkul',46.1711,45.3435,24.980000000000018,48,97,1.58,RU,1684991667
379,atyrau,47.1167,51.8833,28.010000000000048,18,35,14.0,KZ,1684991399
380,santa elena de uairen,4.6167,-61.1333,20.760000000000048,90,100,0.98,VE,1684991668
381,ignalina,55.35,26.1667,17.05000000000001,63,34,2.44,LT,1684991668
382,saint-jean-de-maurienne,45.1667,6.5833,2.2800000000000296,99,100,2.99,FR,1684991669
383,paraiso,9.8383,-83.8656,19.680000000000007,87,95,0.62,CR,1684991669
384,le port,-20.9373,55.2919,24.0,94,99,0.76,RE,1684991669
385,ocos,14.5094,-92.1933,27.100000000000023,79,86,1.3,GT,1684991669
386,kabardinka,44.6514,37.9428,18.100000000000023,88,72,0.56,RU,1684991670
387,saveh,35.0213,50.3566,29.99000000000001,14,80,6.36,IR,1684991670
388,rosarito,32.3333,-117.0333,15.82000000000005,73,2,1.72,MX,1684991408
389,emerald,-23.5333,148.1667,25.75,19,0,4.2,AU,1684991456
390,basco,20.4487,121.9702,27.810000000000002,76,10,3.37,PH,1684991671
391,carutapera,-1.195,-46.02,23.99000000000001,95,88,2.38,BR,1684991671
392,inirida,3.8653,-67.9239,23.480000000000018,97,100,0.47,CO,1684991671
393,kutum,14.2,24.6667,26.980000000000018,21,16,3.0,SD,1684991672
394,hamilton,39.1834,-84.5333,15.689999999999998,61,0,5.14,US,1684991407
395,tamboril,19.4854,-70.611,22.460000000000036,100,75,0.0,DO,1684991672
396,andol,17.8131,78.0772,37.10000000000002,21,45,5.71,IN,1684991673
397,thinadhoo,0.5333,72.9333,28.78000000000003,74,94,4.96,MV,1684991674
398,rawson,-43.3002,-65.1023,10.970000000000027,48,20,9.84,AR,1684991674
399,binji,13.2228,4.9096,31.590000000000032,48,90,4.46,NG,1684991675
400,redencao,-4.2258,-38.7306,22.400000000000034,96,91,0.56,BR,1684991675
401,arraial do cabo,-22.9661,-42.0278,21.850000000000023,83,0,3.39,BR,1684991676
402,dayton,39.7589,-84.1916,14.430000000000007,63,0,7.72,US,1684991413
403,undurkhaan,47.3194,110.6556,14.939999999999998,33,39,5.38,MN,1684991676
404,ostersund,63.1792,14.6357,7.010000000000048,42,40,10.29,SE,1684991676
405,zeya,53.75,127.2667,13.480000000000018,84,100,3.13,RU,1684991677
406,necochea,-38.5473,-58.7368,15.210000000000036,93,100,1.74,AR,1684991677
407,suances,43.4334,-4.0434,14.430000000000007,95,20,3.09,ES,1684991677
408,saint-tropez,43.2693,6.6398,19.120000000000005,90,78,5.56,FR,1684991678
409,santa cruz,-17.8,-63.1667,21.410000000000025,95,65,4.5,BO,1684991678
410,viedma,-40.8135,-62.9967,10.350000000000023,41,37,4.5,AR,1684991678
411,port alfred,-33.5906,26.891,18.390000000000043,45,85,1.58,ZA,1684991647
412,leh,34.1667,77.5833,9.629999999999995,48,43,2.98,IN,1684991679
413,suleja,9.1758,7.1808,24.55000000000001,83,55,1.03,NG,1684991679
414,gadag,15.4167,75.6167,30.930000000000007,38,4,5.42,IN,1684991679
415,nemuro,43.3236,145.575,12.770000000000039,71,2,6.84,JP,1684991680
416,novyy urgal,51.0736,132.5642,26.600000000000023,29,99,5.22,RU,1684991680
417,aral,40.5156,81.2636,22.5,25,100,9.66,CN,1684991681
418,port-cartier,50.0334,-66.8654,7.1200000000000045,73,96,3.6,CA,1684991681
419,tabora,-5.0167,32.8,18.879999999999995,82,0,5.14,TZ,1684991681
420,kovdor,67.5662,30.4758,9.860000000000014,68,100,4.29,RU,1684991682
421,vila velha,-20.3297,-40.2925,19.410000000000025,97,20,0.0,BR,1684991585
422,morki,56.4303,48.9947,22.54000000000002,44,83,4.35,RU,1684991587
423,aljezur,37.3191,-8.8033,15.360000000000014,84,3,1.47,PT,1684991682
424,klyuchi,52.2667,79.1667,19.30000000000001,24,67,4.38,RU,1684991683
425,polyarnyy,69.1989,33.4478,11.650000000000034,61,100,7.89,RU,1684991683
426,ust-tsilma,65.441,52.1498,21.360000000000014,50,97,2.43,RU,1684991683
427,orkney,-26.9802,26.6727,13.79000000000002,50,10,4.54,ZA,1684991684
428,vilyuysk,63.7553,121.6247,11.740000000000009,27,51,4.23,RU,1684991684
429,san pedro,14.35,121.0167,34.08000000000004,64,75,3.09,PH,1684991684
430,hagere maryam,5.6333,38.2333,15.57000000000005,92,100,1.49,ET,1684991684
431,manicore,-5.8092,-61.3003,23.120000000000005,97,95,0.44,BR,1684991685
432,puerto deseado,-47.7503,-65.8938,7.550000000000011,49,67,11.36,AR,1684991685
433,ishikawa,26.4233,127.8214,27.410000000000025,72,75,3.09,JP,1684991686
434,montecristo,8.2971,-74.4733,24.439999999999998,98,100,0.74,CO,1684991686
435,ulsteinvik,62.3432,5.8487,9.310000000000002,83,83,6.71,NO,1684991686
436,ganjam,19.3833,85.0667,34.29000000000002,55,61,5.99,IN,1684991687
437,kolokani,13.5728,-8.0339,30.689999999999998,49,46,0.54,ML,1684991687
438,palikir - national government center,6.9248,158.1611,31.470000000000027,74,75,5.14,FM,1684991687
439,ondjiva,-17.0667,15.7333,13.460000000000036,38,1,0.73,AO,1684991688
440,maslyanino,54.3436,84.2111,14.960000000000036,33,67,3.9,RU,1684991688
441,loiza,18.4313,-65.8802,26.710000000000036,88,34,2.89,PR,1684991688
442,lazaro cardenas,17.9583,-102.2,27.650000000000034,73,100,1.72,MX,1684991689
443,porto novo,6.4965,2.6036,25.900000000000034,93,100,2.29,BJ,1684991689
444,conduaga,8.862,117.4893,29.410000000000025,69,91,3.95,PH,1684991689
445,tashla,51.7716,52.7427,23.650000000000034,39,31,5.07,RU,1684991689
446,maragogi,-9.0122,-35.2225,23.650000000000034,89,13,0.81,BR,1684991690
447,ulety,51.3572,112.4849,12.470000000000027,24,92,6.4,RU,1684991690
448,gypsum,39.6469,-106.9517,12.420000000000016,76,0,1.54,US,1684991691
449,benguela,-12.5763,13.4055,21.870000000000005,88,8,0.92,AO,1684991691
450,brokopondo,4.75,-55.1667,25.090000000000032,92,82,2.5,SR,1684991691
451,birobidzhan,48.8,132.95,26.24000000000001,34,89,6.07,RU,1684991543
452,siwa oasis,29.2041,25.5195,22.730000000000018,52,9,8.6,EG,1684991692
453,kisanga,-7.4362,37.7034,22.5,91,21,0.04,TZ,1684991692
454,sinabang,2.4803,96.3801,29.55000000000001,68,77,0.85,ID,1684991693
455,trairi,-3.2778,-39.2689,23.689999999999998,92,94,3.11,BR,1684991592
456,severo-yeniseyskiy,60.3725,93.0408,5.470000000000027,48,75,3.65,RU,1684991693
457,kuta,-8.7233,115.1723,30.0,74,20,6.26,ID,1684991693
458,mata-utu,-13.2816,-176.1745,27.29000000000002,76,80,2.05,WF,1684991694
459,bam,29.106,58.357,32.35000000000002,13,99,3.07,IR,1684991694
460,palmer,42.1584,-72.3287,10.230000000000018,78,100,7.72,US,1684991694
461,panaba,21.2833,-88.2667,23.980000000000018,85,3,1.57,MX,1684991695
462,coreau,-3.5333,-40.6567,21.810000000000002,94,91,1.39,BR,1684991695
463,kapa'a,22.0752,-159.319,25.99000000000001,78,75,7.2,US,1684991695
464,tchintabaraden,15.8969,5.7985,32.01000000000005,23,79,4.11,NE,1684991695
465,nybro,56.7446,15.9071,14.020000000000039,64,81,3.43,SE,1684991695
466,kismayo,-0.3582,42.5454,27.870000000000005,69,20,5.04,SO,1684991696
467,athni,16.7333,75.0667,32.210000000000036,37,2,4.49,IN,1684991491
468,ceelbuur,4.685,46.6176,25.980000000000018,76,100,5.03,SO,1684991696
469,vecumnieki,56.6064,24.5222,18.140000000000043,71,73,2.19,LV,1684991696
470,gaigeturi,33.4644,126.3183,21.03000000000003,73,40,4.12,KR,1684991697
471,nelson bay,-32.7167,152.15,22.78000000000003,60,100,2.24,AU,1684991697
472,kununurra,-15.7667,128.7333,29.99000000000001,19,7,2.57,AU,1684991697
473,makarov,48.6333,142.8,19.310000000000002,47,94,3.52,RU,1684991698
474,itambe,-15.245,-40.6244,18.390000000000043,97,47,0.85,BR,1684991698
475,grand-bassam,5.2118,-3.7388,25.980000000000018,88,100,2.1,CI,1684991698
476,okha,53.5739,142.9478,5.910000000000025,75,75,6.61,RU,1684991698
477,al kharj,24.155,47.3346,32.32000000000005,23,3,4.96,SA,1684991699
478,dwarka,22.2394,68.9678,29.689999999999998,78,96,9.64,IN,1684991699
479,bonthe,7.5264,-12.505,24.370000000000005,96,100,2.68,SL,1684991699
480,new norfolk,-42.7826,147.0587,13.720000000000027,66,48,4.86,AU,1684991699
481,alaghsas,17.0187,8.0168,32.94,29,47,4.12,NE,1684991700
482,sake,-1.5736,29.045,17.83000000000004,93,36,0.34,CD,1684991635
483,parral,26.9333,-105.6667,23.04000000000002,21,99,5.55,MX,1684991679
484,pisco,-13.7,-76.2167,20.03000000000003,83,16,2.57,PE,1684991700
485,praia da vitoria,38.7333,-27.0667,17.140000000000043,88,75,4.54,PT,1684991701
486,kerikeri,-35.2268,173.9474,16.060000000000002,74,19,2.62,NZ,1684991701
487,quellon,-43.1167,-73.6167,9.140000000000043,93,100,6.17,CL,1684991701
488,tsumeb,-19.2333,17.7167,13.82000000000005,36,5,1.41,NA,1684991702
489,colonia general alfredo stroessner,-25.3667,-55.7,15.680000000000007,87,0,2.11,PY,1684991704
490,guarapari,-20.6667,-40.4975,19.379999999999995,82,24,2.88,BR,1684991704
491,fale old settlement,-9.3852,-171.2468,28.200000000000045,70,36,1.23,TK,1684991705
492,urdinarrain,-32.6857,-58.8932,18.710000000000036,92,99,3.33,AR,1684991706
493,olyokminsk,60.3736,120.4264,15.760000000000048,25,90,3.99,RU,1684991706
494,vadso,70.0744,29.7487,11.490000000000009,62,40,5.66,NO,1684991707
495,gokarna,14.55,74.3167,30.53000000000003,63,8,3.32,IN,1684991707
496,kostomuksha,64.571,30.5767,14.810000000000002,60,100,5.26,RU,1684991707
497,chishmy,54.5765,55.3764,22.129999999999995,44,17,1.84,RU,1684991708
498,rock springs,41.5875,-109.2029,13.910000000000025,67,20,6.71,US,1684991708
499,pielavesi,63.2333,26.75,10.770000000000039,93,100,2.69,FI,1684991709
500,ta`u,-14.2336,-169.5144,27.390000000000043,75,61,0.95,AS,1684991709
501,fada,9.5667,8.3,21.77000000000004,89,83,0.58,NG,1684991709
502,mabaruma,8.2,-59.7833,23.460000000000036,99,54,0.91,GY,1684991710
503,northam,51.0333,-4.2167,10.770000000000039,94,0,1.95,GB,1684991710
504,sovetskaya gavan',48.9723,140.2878,16.340000000000032,58,95,3.58,RU,1684991711
505,labytnangi,66.6572,66.4183,17.04000000000002,50,20,5.9,RU,1684991515
506,namibe,-15.1961,12.1522,18.879999999999995,85,2,5.57,AO,1684991712
507,souillac,-20.5167,57.5167,24.28000000000003,77,55,2.45,MU,1684991712
508,dapa,9.7594,126.0531,30.700000000000045,66,66,6.13,PH,1684991713
509,chardara,41.2547,67.9692,25.27000000000004,24,0,2.94,KZ,1684991713
510,ciudad valles,21.9833,-99.0167,24.920000000000016,79,19,1.58,MX,1684991713
511,medicine hat,50.0501,-110.6683,14.560000000000002,87,100,3.6,CA,1684991714
512,yermolino,55.1949,36.5951,16.910000000000025,85,68,0.45,RU,1684991715
513,bac lieu,9.285,105.7244,33.04000000000002,53,97,5.97,VN,1684991627
514,barlinek,52.9946,15.2186,11.990000000000009,85,1,2.55,PL,1684991716
515,chokwe,-24.5333,32.9833,18.07000000000005,94,0,2.52,MZ,1684991716
516,tomatlan,19.9333,-105.25,23.860000000000014,72,63,1.33,MX,1684991716
517,archangelos,36.2149,28.1149,18.5,74,14,2.34,GR,1684991716
518,cacheu,12.2706,-16.1658,24.05000000000001,62,67,2.1,GW,1684991717
519,nyeri,-0.4201,36.9476,15.450000000000045,93,96,1.05,KE,1684991674
520,al khawr,25.7667,51.3167,36.660000000000025,19,60,5.32,QA,1684991718
521,mahibadhoo,3.7833,72.9667,28.710000000000036,74,95,3.55,MV,1684991718
522,bethanie,-26.4833,17.15,11.220000000000027,50,100,2.99,NA,1684991719
523,illizi,26.4833,8.4667,22.890000000000043,11,100,2.62,DZ,1684991720
524,progreso,21.2833,-89.6667,27.060000000000002,76,0,3.6,MX,1684991720
525,yerofey pavlovich,53.9667,121.9667,11.970000000000027,54,100,3.17,RU,1684991721
526,wattegama,6.7989,81.4808,33.879999999999995,45,14,3.42,LK,1684991721
527,kilju,40.9642,129.3278,23.80000000000001,32,89,6.93,KP,1684991721
528,gannan,47.9147,123.5031,27.510000000000048,25,95,9.28,CN,1684991722
529,martapura,-3.4167,114.85,33.05000000000001,55,40,3.09,ID,1684991722
530,akrehamn,59.2667,5.1833,9.439999999999998,81,75,7.72,NO,1684991723
531,port douglas,-16.4833,145.4667,23.860000000000014,78,73,6.17,AU,1684991723
532,putla villa de guerrero,17.0333,-97.9333,23.04000000000002,86,99,1.52,MX,1684991723
533,khandyga,62.6667,135.6,10.400000000000034,50,88,2.82,RU,1684991724
534,novska,45.3406,16.9769,13.490000000000009,95,78,1.76,HR,1684991724
535,yaren,-0.5472,166.916,28.650000000000034,69,92,0.5,NR,1684991725
536,manakara,-22.1333,48.0167,18.930000000000007,91,89,2.49,MG,1684991725
537,suva,-18.1416,178.4415,22.710000000000036,83,75,1.54,FJ,1684991497
538,chibougamau,49.9168,-74.3659,1.7900000000000205,64,0,3.6,CA,1684991726
539,malango,-2.9627,119.9001,27.33000000000004,67,80,1.83,ID,1684991726
540,kenai,60.5544,-151.2583,14.050000000000011,49,75,2.57,US,1684991515
541,howrah,22.5892,88.3103,33.0,66,40,3.6,IN,1684991727
542,yamada,39.4667,141.95,19.620000000000005,49,84,4.36,JP,1684991727
543,coxen hole,16.3244,-86.5366,28.600000000000023,70,20,5.14,HN,1684991728
544,srikakulam,18.3,83.9,34.400000000000034,47,76,4.59,IN,1684991728
545,danjiangkou,32.5428,111.5086,27.310000000000002,51,76,3.55,CN,1684991728
546,gataia,45.4311,21.43,18.79000000000002,90,1,0.52,RO,1684991729
547,cam ranh,11.9214,109.1591,30.980000000000018,70,20,4.12,VN,1684991729
548,tolanaro,-25.0319,46.9987,20.82000000000005,63,94,1.9,MG,1684991729
549,west valley,46.5921,-120.6051,18.620000000000005,50,40,3.6,US,1684991730
550,san sebastian de la gomera,28.0916,-17.1133,18.200000000000045,59,0,1.54,ES,1684991730
551,gadzhiyevo,69.2551,33.3362,11.650000000000034,61,100,8.27,RU,1684991730
552,akwanga,8.9167,8.3833,23.180000000000007,83,42,0.56,NG,1684991731
553,madaoua,14.073,5.96,31.430000000000007,45,65,5.28,NE,1684991731
554,swift current,50.2834,-107.8014,14.450000000000045,100,75,5.14,CA,1684991732
555,egilsstadir,65.2653,-14.3948,5.9500000000000455,52,40,5.66,IS,1684991732
556,kirando,-7.4167,30.6,23.02000000000004,70,42,2.1,TZ,1684991732
557,pacasmayo,-7.4006,-79.5714,22.730000000000018,81,97,5.17,PE,1684991733
558,colonia,50.9333,6.95,10.54000000000002,86,0,1.54,DE,1684991568
559,cerkno,46.1256,13.9817,17.120000000000005,86,83,1.75,SI,1684991734
560,hasaki,35.7333,140.8333,24.05000000000001,55,100,4.14,JP,1684991734
561,lethem,3.3803,-59.7968,25.02000000000004,88,81,2.39,GY,1684991734
562,yuanping,38.7153,112.7575,26.850000000000023,15,80,8.63,CN,1684991735
563,salmas,38.1973,44.7653,19.74000000000001,49,78,0.84,IR,1684991735
564,paita,-5.0892,-81.1144,23.890000000000043,80,65,4.13,PE,1684991735
565,lewistown,40.5992,-77.5714,11.670000000000016,78,0,5.66,US,1684991466
